run_id,frame_idx,t_wall_s,t_run_s,player_in_vehicle,vehicle_id,pos_x,pos_y,pos_z,vel_x,vel_y,vel_z,speed_mps,yaw_rad,pitch_rad,roll_rad,throttle_cmd,brake_cmd,steer_cmd,manual_override,collision_flag,episode_done,done_reason
dummy_run_001,0,1700000000.0,0.0,True,test_vehicle,0.0,0.0,0.0,0.0,0.0,0.0,0.0,0.0,0.0,0.0,0.6,0.0,0.0,True,False,False,
dummy_run_001,1,1700000000.0166667,0.016666666666666666,True,test_vehicle,0.002648967601770496,4.414894945093894e-07,0.0,0.15893805610622977,2.6489369670563363e-05,0.0,0.1589380583136517,0.00016666473766101895,0.0,0.0,0.6,0.0,0.0011666402007973994,True,False,False,
dummy_run_001,2,1700000000.0333333,0.03333333333333333,True,test_vehicle,0.007911817438788007,2.195691622789192e-06,0.0,0.31577099022105065,0.00010525212769678815,0.0,0.31577100776225997,0.0003333179014489012,0.0,0.0,0.6,0.0,0.0023331216107019145,True,False,False,
dummy_run_001,3,1700000000.05,0.05,True,test_vehicle,0.015753928628263577,6.116339113652089e-06,0.0,0.47052667136853416,0.00023523884945177384,0.0,0.4705267301721219,0.0004999479182942467,0.0,0.0,0.6,0.0,0.003499285460433619,True,False,False,
dummy_run_001,4,1700000000.0666666,0.06666666666666667,True,test_vehicle,0.026141138622169942,1.303986450122079e-05,0.0,0.6232325996343818,0.000415411523254122,0.0,0.6232327380792535,0.0006665432167350724,0.0,0.0,0.6,0.0,0.004664973023935567,True,False,False,
dummy_run_001,5,1700000000.0833333,0.08333333333333333,True,test_vehicle,0.03903973713975628,2.378558916070483e-05,0.0,0.7739159110551803,0.0006447434795690424,0.0,0.7739161796205867,0.0008330922277203817,0.0,0.0,0.6,0.0,0.005830025639977923,True,False,False,
dummy_run_001,6,1700000000.1,0.1,True,test_vehicle,0.054416460180469244,3.9155911153480384e-05,0.0,0.9226033824427777,0.000922219319566533,0.0,0.9226038433603709,0.0009995833854135666,0.0,0.0,0.6,0.0,0.006994284733753276,True,False,False,
dummy_run_001,7,1700000000.1166666,0.11666666666666667,True,test_vehicle,0.07223848411621361,5.9936491871356454e-05,0.0,1.069321436144662,0.0012468348430725643,0.0,1.0693221630526546,0.0011660051279955847,0.0,0.0,0.6,0.0,0.008157591838460189,True,False,False,
dummy_run_001,8,1700000000.1333334,0.13333333333333333,True,test_vehicle,0.09247341986190005,8.689644147049626e-05,0.0,1.2140961447411862,0.0016175969759483883,0.0,1.2140972223406936,0.00133234589846786,0.0,0.0,0.6,0.0,0.00931978861687204,True,False,False,
dummy_run_001,9,1700000000.15,0.15,True,test_vehicle,0.11508930712324125,0.00012078850308603405,0.0,1.3569532356804717,0.0020335236969322673,0.0,1.3569547593941103,0.0014985941454548467,0.0,0.0,0.6,0.0,0.01048071688288825,True,False,False,
dummy_run_001,10,1700000000.1666667,0.16666666666666666,True,test_vehicle,0.1400546087207715,0.00016234923581898635,0.0,1.4979180958518143,0.002493643963977139,0.0,1.4979201714846302,0.001664738324006205,0.0,0.0,0.6,0.0,0.011640218623064897,True,False,False,
dummy_run_001,11,1700000000.1833334,0.18333333333333332,True,test_vehicle,0.16733820498907867,0.0002122991964876027,0.0,1.6370157760984305,0.002996997640116982,0.0,1.6370185195012308,0.0018307668963985265,0.0,0.0,0.6,0.0,0.012798136018121888,True,False,False,
dummy_run_001,12,1700000000.2,0.2,True,test_vehicle,0.1969093882502505,0.0002713431201358329,0.0,1.7742709956703109,0.0035426354188938104,0.0,1.7742745324054638,0.001996668332936563,0.0,0.0,0.6,0.0,0.013954311464423648,True,False,False,
dummy_run_001,13,1700000000.2166667,0.21666666666666667,True,test_vehicle,0.2287378573605508,0.00034017009929210914,0.0,1.9097081466180172,0.004129618749376575,0.0,1.909712611627791,0.0021624311127538933,0.0,0.0,0.6,0.0,0.015108587595430503,True,False,False,
dummy_run_001,14,1700000000.2333333,0.23333333333333334,True,test_vehicle,0.26279371232935367,0.00041945376197214903,0.0,2.0433512981281727,0.0047570197608023945,0.0,2.0433568354056746,0.0023280437246129796,0.0,0.0,0.6,0.0,0.016260807303117755,True,False,False,
dummy_run_001,15,1700000000.25,0.25,True,test_vehicle,0.2990474490093776,0.0005098524484199808,0.0,2.1752242008014355,0.0054239211868699075,0.0,2.175230963064218,0.0024934946677045537,0.0,0.0,0.6,0.0,0.017410813759359597,True,False,False,
dummy_run_001,16,1700000000.2666667,0.26666666666666666,True,test_vehicle,0.33746995385727285,0.0006120093865818766,0.0,2.305350290873715,0.006129416289713749,0.0,2.3053584392401056,0.0026587724524462816,0.0,0.0,0.6,0.0,0.01855845043727491,True,False,False,
dummy_run_001,17,1700000000.2833333,0.2833333333333333,True,test_vehicle,0.3780324987636294,0.0007265528663083519,0.0,2.4337526943813907,0.006872608783588517,0.0,2.4337623980496064,0.0028238656012806434,0.0,0.0,0.6,0.0,0.0197035611325321,True,False,False,
dummy_run_001,18,1700000000.3,0.3,True,test_vehicle,0.4207067359514836,0.0008540964122798487,0.0,2.560454231271254,0.0076526127582898056,0.0,2.5604656672013584,0.0029887626494719843,0.0,0.0,0.6,0.0,0.02084598998460996,True,False,False,
dummy_run_001,19,1700000000.3166666,0.31666666666666665,True,test_vehicle,0.46546469294241605,0.0009952389556521707,0.0,2.6854774194559448,0.008468552602339323,0.0,2.685490772054698,0.0031534521459026703,0.0,0.0,0.6,0.0,0.02198558149801179,True,False,False,
dummy_run_001,20,1700000000.3333333,0.3333333333333333,True,test_vehicle,0.512278767589342,0.0011505650044181756,0.0,2.808844478815554,0.00931956292596029,0.0,2.8088599396242158,0.0033179226538683007,0.0,0.0,0.6,0.0,0.023122180563429854,True,False,False,
dummy_run_001,21,1700000000.35,0.35,True,test_vehicle,0.5611217231751114,0.0013206448124826562,0.0,2.9305773351461664,0.010204788483868842,0.0,2.9305951025312944,0.003482162751871919,0.0,0.0,0.6,0.0,0.024255632478857203,True,False,False,
dummy_run_001,22,1700000000.3666666,0.36666666666666664,True,test_vehicle,0.6119666835760447,0.0015060345474477612,0.0,3.050697624055993,0.011123384097906308,0.0,3.0507179029032936,0.003646161034417168,0.0,0.0,0.6,0.0,0.025385782970644113,True,False,False,
dummy_run_001,23,1700000000.3833334,0.3833333333333333,True,test_vehicle,0.6647871284895417,0.0017072764571067073,0.0,3.169226694809824,0.012074514579536762,0.0,3.1692496962210996,0.0038099061128003342,0.0,0.0,0.6,0.0,0.026512478214496194,True,False,False,
dummy_run_001,24,1700000000.4,0.4,True,test_vehicle,0.7195568887249162,0.0019248990346439326,0.0,3.2861856141224735,0.01305735465223352,0.0,3.28621155511571,0.003973386615901225,0.0,0.0,0.6,0.0,0.027635564856411374,True,False,False,
dummy_run_001,25,1700000000.4166667,0.4166666666666667,True,test_vehicle,0.7762501415566143,0.0021594171825402267,0.0,3.4015951699018876,0.014071088873777648,0.0,3.4016242731145288,0.004136591190972821,0.0,0.0,0.6,0.0,0.02875489003355282,True,False,False,
dummy_run_001,26,1700000000.4333334,0.43333333333333335,True,test_vehicle,0.8348414061389912,0.002411332375181745,0.0,3.515475874942614,0.01511491155849111,0.0,3.5155083683380637,0.004299508504429666,0.0,0.0,0.6,0.0,0.029870301395055032,True,False,False,
dummy_run_001,27,1700000000.45,0.45,True,test_vehicle,0.8953055389818284,0.0026811328201721807,0.0,3.6278479705702327,0.016188026699426154,0.0,3.6278840871476277,0.004462127242634909,0.0,0.0,0.6,0.0,0.03098164712276029,True,False,False,
dummy_run_001,28,1700000000.4666667,0.4666666666666667,True,test_vehicle,0.9576177294857863,0.0029692936183477237,0.0,3.738731430237474,0.017289647890532577,0.0,3.738771407744759,0.004624436112685972,0.0,0.0,0.6,0.0,0.032088775951882496,True,False,False,
dummy_run_001,29,1700000000.4833333,0.48333333333333334,True,test_vehicle,1.0217534955369962,0.003276276922494779,0.0,3.848145963072598,0.018418998248823315,0.0,3.8481900437229477,0.004786423843198772,0.0,0.0,0.6,0.0,0.03319153719159582,True,False,False,
dummy_run_001,30,1700000000.5,0.5,True,test_vehicle,1.087688679160008,0.003602532094770758,0.0,3.9561110173807075,0.019575310336558717,0.0,3.956159447572328,0.004948079185090459,0.0,0.0,0.6,0.0,0.03428978074554514,True,False,False,
dummy_run_001,31,1700000000.5166667,0.5166666666666666,True,test_vehicle,1.155399442228318,0.003948495862828574,0.0,4.062645784098607,0.020757826083468944,0.0,4.062698814137949,0.0051093909123605865,0.0,0.0,0.6,0.0,0.03538335713227555,True,False,False,
dummy_run_001,32,1700000000.5333333,0.5333333333333333,True,test_vehicle,1.2248622622317151,0.004314592474645803,0.0,4.167769200203831,0.021965796709033716,0.0,4.167827084032247,0.005270347822870701,0.0,0.0,0.6,0.0,0.0364721175055783,True,False,False,
dummy_run_001,33,1700000000.55,0.55,True,test_vehicle,1.2960539280996888,0.004701233852059766,0.0,4.271499952078425,0.023198482644837776,0.0,4.271562947002304,0.005430938739122258,0.0,0.0,0.6,0.0,0.03755591367475013,True,False,False,
dummy_run_001,34,1700000000.5666666,0.5666666666666667,True,test_vehicle,1.3689515360801576,0.005108819743010102,0.0,4.3738564788281264,0.024455153457020175,0.0,4.373924845252532,0.005591152509032831,0.0,0.0,0.6,0.0,0.038634598124763414,True,False,False,
dummy_run_001,35,1700000000.5833333,0.5833333333333334,True,test_vehicle,1.4435324856727825,0.005537737872490683,0.0,4.474856975557489,0.025735087768834874,0.0,4.474930976723327,0.005750978006710563,0.0,0.0,0.6,0.0,0.03970802403634449,True,False,False,
dummy_run_001,36,1700000000.6,0.6,True,test_vehicle,1.5197744756161418,0.005988364092213008,0.0,4.574519396601563,0.027037573183339502,0.0,4.57459929832631,0.005910404133226791,0.0,0.0,0.6,0.0,0.04077604530595702,True,False,False,
dummy_run_001,37,1700000000.6166666,0.6166666666666667,True,test_vehicle,1.5976554999280534,0.00646106252898349,0.0,4.672861458714699,0.028361906206228873,0.0,4.672947529136714,0.0060694198173868,0.0,0.0,0.6,0.0,0.04183851656568816,True,False,False,
dummy_run_001,38,1700000000.6333334,0.6333333333333333,True,test_vehicle,1.6771538439983376,0.00695618573179731,0.0,4.769900644217052,0.029707392168829203,0.0,4.769993153543485,0.006228014016498647,0.0,0.0,0.6,0.0,0.042895293203034535,True,False,False,
dummy_run_001,39,1700000000.65,0.65,True,test_vehicle,1.7582480807333263,0.007474074817651786,0.0,4.865654204099329,0.03107334515126855,0.0,4.865753424357667,0.006386175717140019,0.0,0.0,0.6,0.0,0.04394623138058532,True,False,False,
dummy_run_001,40,1700000000.6666667,0.6666666666666666,True,test_vehicle,1.8409170667514323,0.008015059616082428,0.0,4.960139161086365,0.03245908790583849,0.0,4.960245365879619,0.006543893935923044,0.0,0.0,0.6,0.0,0.044991188055599964,True,False,False,
dummy_run_001,41,1700000000.6833334,0.6833333333333333,True,test_vehicle,1.9251399386290995,0.00857945881242512,0.0,5.053372312660033,0.03386395178056158,0.0,5.053485776925588,0.006701157720257026,0.0,0.0,0.6,0.0,0.04603002099947761,True,False,False,
dummy_run_001,42,1700000000.7,0.7,True,test_vehicle,2.010896109196467,0.009167580089808098,0.0,5.145370234042067,0.0352872766429787,0.0,5.145491233814221,0.006857956149109027,0.0,0.0,0.6,0.0,0.0470625888171158,True,False,False,
dummy_run_001,43,1700000000.7166667,0.7166666666666667,True,test_vehicle,2.098165263882089,0.009779720269877602,0.0,5.23614928113731,0.03672841080417021,0.0,5.23627809331351,0.007014278333762281,0.0,0.0,0.6,0.0,0.04808875096615572,True,False,False,
dummy_run_001,44,1700000000.7333333,0.7333333333333333,True,test_vehicle,2.186927357106054,0.010416165452261329,0.0,5.325725593437908,0.03818671094302365,0.0,5.325862495548698,0.007170113418572344,0.0,0.0,0.6,0.0,0.04910836777611131,True,False,False,
dummy_run_001,45,1700000000.75,0.75,True,test_vehicle,2.2771626087208703,0.011077191152774018,0.0,5.414115096888986,0.039661542030761276,0.0,5.414260366871684,0.007325450581720952,0.0,0.0,0.6,0.0,0.05012130046737978,True,False,False,
dummy_run_001,46,1700000000.7666667,0.7666666666666666,True,test_vehicle,2.368851500499475,0.011763062440369674,0.0,5.501333506716294,0.041152277255739445,0.0,5.5014874226924055,0.007480279035967532,0.0,0.0,0.6,0.0,0.05112741117013088,True,False,False,
dummy_run_001,47,1700000000.7833333,0.7833333333333333,True,test_vehicle,2.461974772669748,0.012474034072845211,0.0,5.587396330216358,0.04265829794853226,0.0,5.587559170272749,0.007634588029398322,0.0,0.0,0.6,0.0,0.05212656294307221,True,False,False,
dummy_run_001,48,1700000000.8,0.8,True,test_vehicle,2.556513420494908,0.013210350631300384,0.0,5.672318869509599,0.0441789935073104,0.0,5.672490911483417,0.007788366846173011,0.0,0.0,0.6,0.0,0.053118619792088345,True,False,False,
dummy_run_001,49,1700000000.8166666,0.8166666666666667,True,test_vehicle,2.6524486908991904,0.013972246653359168,0.0,5.756116224256942,0.04571376132352697,0.0,5.756297745524318,0.007941604807268899,0.0,0.0,0.6,0.0,0.05410344668875085,True,False,False,
dummy_run_001,50,1700000000.8333333,0.8333333333333334,True,test_vehicle,2.749762079138197,0.014759946765157846,0.0,5.838803294340381,0.04726200670792068,0.0,5.838994571608896,0.008094291271222494,0.0,0.0,0.6,0.0,0.055080909588696984,True,False,False,
dummy_run_001,51,1700000000.85,0.85,True,test_vehicle,2.84843532551333,0.015573665812105295,0.0,5.920394782507982,0.048823142816846965,0.0,5.920596091612925,0.008246415634868495,0.0,0.0,0.6,0.0,0.056050875449874416,True,False,False,
dummy_run_001,52,1700000000.8666666,0.8666666666666667,True,test_vehicle,2.9484504121297266,0.016413608988421077,0.0,6.000905196983799,0.05039659057894698,0.0,6.001116812688214,0.008397967334076117,0.0,0.0,0.6,0.0,0.05701321225064955,True,False,False,
dummy_run_001,53,1700000000.8833334,0.8833333333333333,True,test_vehicle,3.0497895596971127,0.017279971965457146,0.0,6.0803488540431765,0.05198177862216417,0.0,6.0805710498416925,0.008548935844482707,0.0,0.0,0.6,0.0,0.057967789007776827,True,False,False,
dummy_run_001,54,1700000000.9,0.9,True,test_vehicle,3.152435224373011,0.01817294101880911,0.0,6.158739880553879,0.05357814320111773,0.0,6.15897292848034,0.008699310682224605,0.0,0.0,0.6,0.0,0.058914475794226956,True,False,False,
dummy_run_001,55,1700000000.9166667,0.9166666666666666,True,test_vehicle,3.2563700946477363,0.01909269315422314,0.0,6.236092216483516,0.05518512812484181,0.0,6.236336386922408,0.008849081404665175,0.0,0.0,0.6,0.0,0.059853143756871056,True,False,False,
dummy_run_001,56,1700000000.9333334,0.9333333333333333,True,test_vehicle,3.3615770882706313,0.02003939623230479,0.0,6.312419617373695,0.056802184684899074,0.0,6.3126751788753745,0.008998237611119994,0.0,0.0,0.6,0.0,0.06078366513401895,True,False,False,
dummy_run_001,57,1700000000.95,0.95,True,test_vehicle,3.4680393492169874,0.021013209092036075,0.0,6.3877356567813806,0.05842877158387695,0.0,6.388002875881089,0.009146768943579109,0.0,0.0,0.6,0.0,0.06170591327280866,True,False,False,
dummy_run_001,58,1700000000.9666667,0.9666666666666667,True,test_vehicle,3.575740244695118,0.022014281673107317,0.0,6.462053728687845,0.06006435486427456,0.0,6.462332869728527,0.00929466508742635,0.0,0.0,0.6,0.0,0.0626197626464451,True,False,False,
dummy_run_001,59,1700000000.9833333,0.9833333333333333,True,test_vehicle,3.684663362193046,0.02304275513707044,0.0,6.535387049875665,0.06170840783778748,0.0,6.535678374834584,0.009441915772155607,0.0,0.0,0.6,0.0,0.06352508887128548,True,False,False,
dummy_run_001,60,1700000001.0,1.0,True,test_vehicle,3.7947925065642827,0.024098761987320413,0.0,6.607748662274207,0.06336041101499829,0.0,6.608052430593341,0.00958851077208406,0.0,0.0,0.6,0.0,0.0644217687237691,True,False,False,
dummy_run_001,61,1700000001.0166667,1.0166666666666666,True,test_vehicle,3.9061116971521823,0.025182426187911736,0.0,6.679151435273982,0.0650198520354794,0.0,6.679467903694217,0.009734439907062294,0.0,0.0,0.6,0.0,0.06530968015718927,True,False,False,
dummy_run_001,62,1700000001.0333333,1.0333333333333332,True,test_vehicle,4.018605164952354,0.026293863281216984,0.0,6.749608068010313,0.06668622559831484,0.0,6.749937490409408,0.009879693043181249,0.0,0.0,0.6,0.0,0.06618870231830501,True,False,False,
dummy_run_001,63,1700000001.05,1.05,True,test_vehicle,4.132257349812632,0.027433180504434447,0.0,6.819131091616707,0.06835903339304782,0.0,6.819473718851044,0.010024260093475958,0.0,0.0,0.6,0.0,0.06705871556379038,True,False,False,
dummy_run_001,64,1700000001.0666666,1.0666666666666667,True,test_vehicle,4.2470528976701045,0.0286004769049521,0.0,6.8877328714483355,0.07003778403105922,0.0,6.888088951198432,0.010168131018626023,0.0,0.0,0.6,0.0,0.06791960147651897,True,False,False,
dummy_run_001,65,1700000001.0833333,1.0833333333333333,True,test_vehicle,4.362976657824705,0.029795843454575168,0.0,6.955425609276034,0.0717219929773841,0.0,6.955795385895817,0.010311295827652795,0.0,0.0,0.6,0.0,0.06877124288168178,True,False,False,
dummy_run_001,66,1700000001.1,1.1,True,test_vehicle,4.4800136802488915,0.031019363162624675,0.0,7.022221345451189,0.07341118248297047,0.0,7.022605059821024,0.010453744578613184,0.0,0.0,0.6,0.0,0.06961352386273567,True,False,False,
dummy_run_001,67,1700000001.1166666,1.1166666666666667,True,test_vehicle,4.598149212932923,0.032271111187914446,0.0,7.088131961041913,0.07510488151738619,0.0,7.0885298504253775,0.010595467379290062,0.0,0.0,0.6,0.0,0.0704463297771808,True,False,False,
dummy_run_001,68,1700000001.1333334,1.1333333333333333,True,test_vehicle,4.717368699265271,0.033551154949614095,0.0,7.1531691799409,0.07680262570197904,0.0,7.1535814778452815,0.010736454387879226,0.0,0.0,0.6,0.0,0.07126954727216453,True,False,False,
dummy_run_001,69,1700000001.15,1.15,True,test_vehicle,4.837657775447693,0.034859554237005666,0.0,7.217344570945301,0.07850395724349442,0.0,7.21777150698583,0.010876695813672852,0.0,0.0,0.6,0.0,0.07208306429990985,True,False,False,
dummy_run_001,70,1700000001.1666667,1.1666666666666667,True,test_vehicle,4.95900226794451,0.03619636131814158,0.0,7.280669549809041,0.08020842486815495,0.0,7.281111349576822,0.011016181917739397,0.0,0.0,0.6,0.0,0.07288677013296617,True,False,False,
dummy_run_001,71,1700000001.1833334,1.1833333333333333,True,test_vehicle,5.081388190965641,0.03756162104741169,0.0,7.343155381267889,0.08191558375620672,0.0,7.3436122662015375,0.01115490301359991,0.0,0.0,0.6,0.0,0.07368055537928031,True,False,False,
dummy_run_001,72,1700000001.2,1.2,True,test_vehicle,5.204801743982936,0.03895537097202728,0.0,7.404813181037698,0.08362499547693562,0.0,7.405285368298655,0.011292849467900708,0.0,0.0,0.6,0.0,0.07446431199708593,True,False,False,
dummy_run_001,73,1700000001.2166667,1.2166666666666666,True,test_vehicle,5.329229309279372,0.04037764143742991,0.0,7.465653917786126,0.08533622792415772,0.0,7.46614162013765,0.011430011701082344,0.0,0.0,0.6,0.0,0.07523793330960893,True,False,False,
dummy_run_001,74,1700000001.2333333,1.2333333333333334,True,test_vehicle,5.454657449530675,0.04182845569163303,0.0,7.525688415078209,0.08704885525218709,0.0,7.526191840768018,0.01156638018804486,0.0,0.0,0.6,0.0,0.07600131401958721,True,False,False,
dummy_run_001,75,1700000001.25,1.25,True,test_vehicle,5.581072905418944,0.04330782998850443,0.0,7.5849273532961385,0.0887624578122841,0.0,7.585446705942692,0.011701945458809244,0.0,0.0,0.6,0.0,0.07675435022360272,True,False,False,
dummy_run_001,76,1700000001.2666667,1.2666666666666666,True,test_vehicle,5.7084625932778374,0.04481577368999756,0.0,7.643381271533581,0.09047662208958787,0.0,7.643916750015992,0.011836698099175058,0.0,0.0,0.6,0.0,0.07749693942622354,True,False,False,
dummy_run_001,77,1700000001.2833333,1.2833333333333332,True,test_vehicle,5.836813602768919,0.04635228936733981,0.0,7.70106056946487,0.09219094064053475,0.0,7.7016123678164154,0.01197062875137421,0.0,0.0,0.6,0.0,0.07822898055395469,True,False,False,
dummy_run_001,78,1700000001.3,1.3,True,test_vehicle,5.9661131945887425,0.04791737290118592,0.0,7.757975509189411,0.0939050120307663,0.0,7.7585438164946385,0.012103728114720791,0.0,0.0,0.6,0.0,0.07895037396899504,True,False,False,
dummy_run_001,79,1700000001.3166666,1.3166666666666667,True,test_vehicle,6.09634879820627,0.04951101358074472,0.0,7.814136217051631,0.0956184407735283,0.0,7.814721217347036,0.012235986946256943,0.0,0.0,0.6,0.0,0.07966102148279905,True,False,False,
dummy_run_001,80,1700000001.3333333,1.3333333333333333,True,test_vehicle,6.227508009630217,0.05113319420188745,0.0,7.869552685436801,0.09733083726856376,0.0,7.870154557615052,0.01236739606139474,0.0,0.0,0.6,0.0,0.08036082636944111,True,False,False,
dummy_run_001,81,1700000001.35,1.35,True,test_vehicle,6.359578589205934,0.05278389116424581,0.0,7.924234774543028,0.09904181774150143,0.0,7.924853692260731,0.012497946334553998,0.0,0.0,0.6,0.0,0.08104969337878097,True,False,False,
dummy_run_001,82,1700000001.3666666,1.3666666666666667,True,test_vehicle,6.49254845944143,0.05446307456730817,0.0,7.978192214129766,0.10075100418374158,0.0,7.978828345718741,0.012627628699795987,0.0,0.0,0.6,0.0,0.08172752874942807,True,False,False,
dummy_run_001,83,1700000001.3833334,1.3833333333333333,True,test_vehicle,6.626405702862149,0.05617070830552219,0.0,8.03143460524314,0.10245802429284087,0.0,8.032088113625187,0.012756434151453017,0.0,0.0,0.6,0.0,0.0823942402215034,True,False,False,
dummy_run_001,84,1700000001.4,1.4,True,test_vehicle,6.761138559894122,0.05790675016241215,0.0,8.083971421918381,0.1041625114133976,0.0,8.084642464523526,0.01288435374475382,0.0,0.0,0.6,0.0,0.08304973704919705,True,False,False,
dummy_run_001,85,1700000001.4166667,1.4166666666666667,True,test_vehicle,6.896735426775117,0.05967115190371946,0.0,8.135812012859708,0.10586410447843848,0.0,8.13650074154789,0.013011378596444717,0.0,0.0,0.6,0.0,0.08369393001311944,True,False,False,
dummy_run_001,86,1700000001.4333334,1.4333333333333333,True,test_vehicle,7.033184853493416,0.061463859369574596,0.0,8.186965603097917,0.10756244795130807,0.0,8.187672164084107,0.013137499885406495,0.0,0.0,0.6,0.0,0.08432673143244501,True,False,False,
dummy_run_001,87,1700000001.45,1.45,True,test_vehicle,7.1704755417538495,0.06328481256570896,0.0,8.237441295626008,0.10925719176806177,0.0,8.238165829408736,0.013262708853266993,0.0,0.0,0.6,0.0,0.08494805517684643,True,False,False,
dummy_run_001,88,1700000001.4666667,1.4666666666666666,True,test_vehicle,7.308596342970735,0.06513394575371502,0.0,8.287248073013116,0.11094799128036319,0.0,8.287990714306378,0.013386996805009323,0.0,0.0,0.6,0.0,0.08555781667821771,True,False,False,
dummy_run_001,89,1700000001.4833333,1.4833333333333334,True,test_vehicle,7.447536256287353,0.06701118754036312,0.0,8.336394798997055,0.11263450719888587,0.0,8.33715567666558,0.013510355109575671,0.0,0.0,0.6,0.0,0.08615593294218475,True,False,False,
dummy_run_001,90,1700000001.5,1.5,True,test_vehicle,7.587284426621615,0.06891646096598346,0.0,8.384890220055732,0.11431640553722049,0.0,8.385669457053577,0.013632775200466683,0.0,0.0,0.6,0.0,0.08674232255940169,True,False,False,
dummy_run_001,91,1700000001.5166667,1.5166666666666666,True,test_vehicle,7.727830142737577,0.07084968359192158,0.0,8.432742966957749,0.11599335755628745,0.0,8.433540680270212,0.013754248576336357,0.0,0.0,0.6,0.0,0.08731690571663149,True,False,False,
dummy_run_001,92,1700000001.5333333,1.5333333333333332,True,test_vehicle,7.869162835342451,0.07281076758707583,0.0,8.47996155629243,0.11766503970925489,0.0,8.48077785688125,0.013874766801582408,0.0,0.0,0.6,0.0,0.08787960420760926,True,False,False,
dummy_run_001,93,1700000001.55,1.55,True,test_vehicle,8.011272075208778,0.0747996198135252,0.0,8.526554391979593,0.119331133586962,0.0,8.527389384731393,0.01399432150693207,0.0,0.0,0.6,0.0,0.08843034144368692,True,False,False,
dummy_run_001,94,1700000001.5666666,1.5666666666666667,True,test_vehicle,8.154147571321433,0.07681614191125599,0.0,8.57252976675926,0.1209913258638476,0.0,8.57338355043724,0.014112904390023301,0.0,0.0,0.6,0.0,0.08896904246425753,True,False,False,
dummy_run_001,95,1700000001.5833333,1.5833333333333333,True,test_vehicle,8.297779169049127,0.07886023038199572,0.0,8.61789586366167,0.12264530824438344,0.0,8.6187685308605,0.014230507215981309,0.0,0.0,0.6,0.0,0.08949563394695834,True,False,False,
dummy_run_001,96,1700000001.6,1.6,True,test_vehicle,8.44215684834009,0.08093177667216259,0.0,8.662660757457779,0.12429277741001231,0.0,8.663552394561671,0.014347121817990456,0.0,0.0,0.6,0.0,0.0900100442176505,True,False,False,
dummy_run_001,97,1700000001.6166666,1.6166666666666667,True,test_vehicle,8.5872707219416,0.08303066725493907,0.0,8.706832416090538,0.12593343496658907,0.0,8.70774310323447,0.014462740097861346,0.0,0.0,0.6,0.0,0.09051220326017467,True,False,False,
dummy_run_001,98,1700000001.6333334,1.6333333333333333,True,test_vehicle,8.733111033643054,0.08515678371147783,0.0,8.750418702087208,0.12756698739232555,0.0,8.751348513121274,0.014577354026593232,0.0,0.0,0.6,0.0,0.09100204272588087,True,False,False,
dummy_run_001,99,1700000001.65,1.65,True,test_vehicle,8.87966815654227,0.08731000281124845,0.0,8.79342737395294,0.1291931459862369,0.0,8.794376376409796,0.014690955644931572,0.0,0.0,0.6,0.0,0.09147949594293141,True,False,False,
dummy_run_001,100,1700000001.6666667,1.6666666666666667,True,test_vehicle,9.0269325913347,0.08949019659153327,0.0,8.835866087545895,0.13081162681708944,0.0,8.83683434261128,0.014803537063920742,0.0,0.0,0.6,0.0,0.09194449792537551,True,False,False,
dummy_run_001,101,1700000001.6833334,1.6833333333333333,True,test_vehicle,9.17489496462527,0.09169723243608074,0.0,8.877742397434146,0.1324221506728483,0.0,8.878729959920427,0.014915090465451891,0.0,0.0,0.6,0.0,0.09239698538199458,True,False,False,
dummy_run_001,102,1700000001.7,1.7,True,test_vehicle,9.323546027262514,0.09393097315292448,0.0,8.919063758234586,0.13402444301062424,0.0,8.92007067655733,0.015025608102805855,0.0,0.0,0.6,0.0,0.09283689672491667,True,False,False,
dummy_run_001,103,1700000001.7166667,1.7166666666666666,True,test_vehicle,9.47287665269475,0.09619127705137644,0.0,8.959837525934082,0.13561823390711733,0.0,8.960863842091602,0.015135082301191118,0.0,0.0,0.6,0.0,0.0932641720779993,True,False,False,
dummy_run_001,104,1700000001.7333333,1.7333333333333334,True,test_vehicle,9.622877835347968,0.0984779980182024,0.0,9.000070959193152,0.13720325800955735,0.0,9.001116708748999,0.015243505458276794,0.0,0.0,0.6,0.0,0.09367875328497904,True,False,False,
dummy_run_001,105,1700000001.75,1.75,True,test_vehicle,9.773540689025173,0.10079098559298803,0.0,9.039771220632339,0.13877925448713802,0.0,9.040836432700722,0.015350870044720542,0.0,0.0,0.6,0.0,0.09408058391738722,True,False,False,
dummy_run_001,106,1700000001.7666667,1.7666666666666666,True,test_vehicle,9.924856445326865,0.10313008504270378,0.0,9.078945378101546,0.14034596698294455,0.0,9.080030075335642,0.01545716860469145,0.0,0.0,0.6,0.0,0.09446960928223033,True,False,False,
dummy_run_001,107,1700000001.7833333,1.7833333333333332,True,test_vehicle,10.076816452092407,0.10549513743547664,0.0,9.117600405932551,0.14190314356637201,0.0,9.118704604515678,0.015562393756387795,0.0,0.0,0.6,0.0,0.09484577642943431,True,False,False,
dummy_run_001,108,1700000001.8,1.8,True,test_vehicle,10.22941217186199,0.10788597971357719,0.0,9.155743186174933,0.14345053668603316,0.0,9.15686689581454,0.015666538192549668,0.0,0.0,0.6,0.0,0.09520903415905158,True,False,False,
dummy_run_001,109,1700000001.8166666,1.8166666666666667,True,test_vehicle,10.382635180358916,0.11030244476562974,0.0,9.193380509815613,0.14498790312315316,0.0,9.19452373374008,0.015769594680966406,0.0,0.0,0.6,0.0,0.0955593330282297,True,False,False,
dummy_run_001,110,1700000001.8333333,1.8333333333333333,True,test_vehicle,10.536477164991954,0.1127443614980539,0.0,9.230519077982247,0.14651500394545028,0.0,9.231681812940446,0.01587155606497884,0.0,0.0,0.6,0.0,0.09589662535794119,True,False,False,
dummy_run_001,111,1700000001.85,1.8499999999999999,True,test_vehicle,10.690929923377466,0.11521155490574556,0.0,9.267165503130665,0.14803160446149916,0.0,9.268347739394247,0.015972415263976282,0.0,0.0,0.6,0.0,0.09622086523947303,True,False,False,
dummy_run_001,112,1700000001.8666666,1.8666666666666667,True,test_vehicle,10.845985361881075,0.11770384614200514,0.0,9.303326310216569,0.14953747417557534,0.0,9.30452803158498,0.016072165273888224,0.0,0.0,0.6,0.0,0.09653200854067523,True,False,False,
dummy_run_001,113,1700000001.8833334,1.8833333333333333,True,test_vehicle,11.001635494178604,0.12022105258772145,0.0,9.339007937851747,0.15103238674297847,0.0,9.340229121659876,0.016170799167670728,0.0,0.0,0.6,0.0,0.0968300129119677,True,False,False,
dummy_run_001,114,1700000001.9,1.9,True,test_vehicle,11.15787243983602,0.12276298791981866,0.0,9.374216739444927,0.15251611992583206,0.0,9.375457356573422,0.016268310095787476,0.0,0.0,0.6,0.0,0.09711483779210446,True,False,False,
dummy_run_001,115,1700000001.9166667,1.9166666666666667,True,test_vehicle,11.314688422908144,0.12532946217897462,0.0,9.40895898432755,0.1539884555493568,0.0,9.410218999215724,0.016364691286685426,0.0,0.0,0.6,0.0,0.09738644441369429,True,False,False,
dummy_run_001,116,1700000001.9333334,1.9333333333333333,True,test_vehicle,11.472075770555888,0.12792028183661822,0.0,9.443240858864598,0.15544917945861575,0.0,9.44452022952591,0.016459936047265054,0.0,0.0,0.6,0.0,0.09764479580847747,True,False,False,
dummy_run_001,117,1700000001.95,1.95,True,test_vehicle,11.630026911681734,0.13053524986121368,0.0,9.477068467550753,0.15689808147572804,0.0,9.478367145590823,0.01655403776334515,0.0,0.0,0.6,0.0,0.09788985681235746,True,False,False,
dummy_run_001,118,1700000001.9666667,1.9666666666666666,True,test_vehicle,11.788534375583266,0.1331741657838395,0.0,9.510447834091995,0.15833495535754935,0.0,9.511765764729132,0.016646989900122144,0.0,0.0,0.6,0.0,0.09812159407018707,True,False,False,
dummy_run_001,119,1700000001.9833333,1.9833333333333334,True,test_vehicle,11.947590790624481,0.13583682576306977,0.0,9.543384902472896,0.1597595987538151,0.0,9.544722024561091,0.016738786002623886,0.0,0.0,0.6,0.0,0.0983399760403084,True,False,False,
dummy_run_001,120,1700000002.0,2.0,True,test_vehicle,12.107188882924644,0.13852302264916552,0.0,9.57588553800978,0.1611718131657454,0.0,9.577241784064135,0.01682941969615793,0.0,0.0,0.6,0.0,0.09854497299884601,True,False,False,
dummy_run_001,121,1700000002.0166667,2.0166666666666666,True,test_vehicle,12.267321475064476,0.14123254604758398,0.0,9.607955528389928,0.16257140390510696,0.0,9.609330824614492,0.0169188846867542,0.0,0.0,0.6,0.0,0.0987365570437526,True,False,False,
dummy_run_001,122,1700000002.0333333,2.033333333333333,True,test_vehicle,12.427981484809425,0.14396518238181283,0.0,9.639600584697021,0.1639581800537313,0.0,9.640994851014998,0.017007174761602087,0.0,0.0,0.6,0.0,0.0989147020986067,True,False,False,
dummy_run_001,123,1700000002.05,2.05,True,test_vehicle,12.58916192384981,0.14672071495553757,0.0,9.67082634242302,0.1653319544234836,0.0,9.672239492509297,0.017094283789481867,0.0,0.0,0.6,0.0,0.09907938391616197,True,False,False,
dummy_run_001,124,1700000002.0666666,2.0666666666666664,True,test_vehicle,12.750855896557587,0.14949892401414894,0.0,9.701638362466616,0.16669254351668203,0.0,9.703070303782612,0.017180205721190507,0.0,0.0,0.6,0.0,0.09923058008164753,True,False,False,
dummy_run_001,125,1700000002.0833333,2.0833333333333335,True,test_vehicle,12.913056598759562,0.15229958680559832,0.0,9.732042132118494,0.16803976748696248,0.0,9.733492765949258,0.01726493458996172,0.0,0.0,0.6,0.0,0.09936827001581869,True,False,False,
dummy_run_001,126,1700000002.1,2.1,True,test_vehicle,13.075757316526788,0.1551224776406081,0.0,9.76204306603353,0.16937345010058633,0.0,9.76351228752708,0.01734846451188034,0.0,0.0,0.6,0.0,0.0994924349777581,True,False,False,
dummy_run_001,127,1700000002.1166666,2.1166666666666667,True,test_vehicle,13.238951424979957,0.1579673679522446,0.0,9.791646507190128,0.1706934186981885,0.0,9.79313420539898,0.017430789686290908,0.0,0.0,0.6,0.0,0.09960305806742652,True,False,False,
dummy_run_001,128,1700000002.1333334,2.1333333333333333,True,test_vehicle,13.402632387110572,0.1608340263548606,0.0,9.820857727836849,0.17199950415696155,0.0,9.822363785761704,0.01751190439620051,0.0,0.0,0.6,0.0,0.0997001242279631,True,False,False,
dummy_run_001,129,1700000002.15,2.15,True,test_vehicle,13.56679375261768,0.16372221870241518,0.0,9.849681930426517,0.173291540853274,0.0,9.851206225062082,0.01759180300867578,0.0,0.0,0.6,0.0,0.0997836202477347,True,False,False,
dummy_run_001,130,1700000002.1666667,2.1666666666666665,True,test_vehicle,13.73142915675998,0.16663170814617714,0.0,9.878124248537944,0.17456936662571815,0.0,9.87966665092084,0.01767047997523407,0.0,0.0,0.6,0.0,0.09985353476213424,True,False,False,
dummy_run_001,131,1700000002.1833334,2.183333333333333,True,test_vehicle,13.896532319223072,0.16956225519182022,0.0,9.906189747785477,0.1758328227385851,0.0,9.907750123044199,0.017747929832228768,0.0,0.0,0.6,0.0,0.09990985825512738,True,False,False,
dummy_run_001,132,1700000002.2,2.2,True,test_vehicle,14.06209704300168,0.17251361775591628,0.0,9.933883426716504,0.1770817538457634,0.0,9.935461634123394,0.01782414720122871,0.0,0.0,0.6,0.0,0.09995258306054791,True,False,False,
dummy_run_001,133,1700000002.2166667,2.216666666666667,True,test_vehicle,14.228117213296631,0.1754855512218339,0.0,9.96121021769704,0.1783160079550575,0.0,9.962806110722266,0.017899126789391668,0.0,0.0,0.6,0.0,0.09998170336314102,True,False,False,
dummy_run_001,134,1700000002.2333333,2.2333333333333334,True,test_vehicle,14.394586796426392,0.1784778084950493,0.0,9.988174987785662,0.17953543639292352,0.0,9.98978841415312,0.017972863389831943,0.0,0.0,0.6,0.0,0.09999721519935492,True,False,False,
dummy_run_001,135,1700000002.25,2.25,True,test_vehicle,14.561499838752988,0.18149014005787625,0.0,10.014782539595823,0.18073989376961755,0.0,10.01641334134096,0.018045351881981905,0.0,0.0,0.6,0.0,0.09999911645788032,True,False,False,
dummy_run_001,136,1700000002.2666667,2.2666666666666666,True,test_vehicle,14.728850465622102,0.18452229402362216,0.0,10.04103761214678,0.18192923794475452,0.0,10.042685625676306,0.018116587231947624,0.0,0.0,0.6,0.0,0.09998740687993773,True,False,False,
dummy_run_001,137,1700000002.2833333,2.283333333333333,True,test_vehicle,14.896632880317156,0.18757401619017672,0.0,10.066944881703263,0.1831033299932728,0.0,10.068609937856673,0.018186564492858423,0.0,0.0,0.6,0.0,0.09996208805931273,True,False,False,
dummy_run_001,138,1700000002.3,2.3,True,test_vehicle,15.064841363027224,0.19064505009304009,0.0,10.092508962604018,0.184262034171802,0.0,10.094190886716952,0.01825527880521042,0.0,0.0,0.6,0.0,0.09992316344213906,True,False,False,
dummy_run_001,139,1700000002.3166666,2.3166666666666664,True,test_vehicle,15.233470269828548,0.19373513705779724,0.0,10.117734408079407,0.18540521788542974,0.0,10.119433020048756,0.018322725397203983,0.0,0.0,0.6,0.0,0.0998706383264295,True,False,False,
dummy_run_001,140,1700000002.3333333,2.3333333333333335,True,test_vehicle,15.402514031679518,0.19684401625204498,0.0,10.14262571105819,0.18653275165486402,0.0,10.144340825408943,0.018388899585075103,0.0,0.0,0.6,0.0,0.09980451986135483,True,False,False,
dummy_run_001,141,1700000002.35,2.35,True,test_vehicle,15.571967153428911,0.19997142473677812,0.0,10.167187304963612,0.18764450908398791,0.0,10.168918730917394,0.018453796773420662,0.0,0.0,0.6,0.0,0.09972481704627072,True,False,False,
dummy_run_001,142,1700000002.3666666,2.3666666666666667,True,test_vehicle,15.741824212837228,0.2031170975172415,0.0,10.191423564498997,0.18874036682780243,0.0,10.193171106044268,0.018517412455517548,0.0,0.0,0.6,0.0,0.09963154072949282,True,False,False,
dummy_run_001,143,1700000002.3833334,2.3833333333333333,True,test_vehicle,15.912079859610943,0.20628076759325406,0.0,10.215338806422912,0.18982020456075438,0.0,10.217102262386796,0.01857974221363563,0.0,0.0,0.6,0.0,0.09952470360682028,True,False,False,
dummy_run_001,144,1700000002.4,2.4,True,test_vehicle,16.08272881444951,0.20946216600901146,0.0,10.238937290314112,0.19088390494544488,0.0,10.240716454435798,0.018640781719344527,0.0,0.0,0.6,0.0,0.09940432021980761,True,False,False,
dummy_run_001,145,1700000002.4166667,2.4166666666666665,True,test_vehicle,16.25376586810495,0.2126610219023734,0.0,10.262223219326346,0.19193135360171612,0.0,10.264017880332059,0.01870052673381421,0.0,0.0,0.6,0.0,0.09927040695378553,True,False,False,
dummy_run_001,146,1700000002.4333334,2.433333333333333,True,test_vehicle,16.425185880453835,0.21587706255364192,0.0,10.285200740933199,0.1929624390761109,0.0,10.287010682612662,0.01875897310810935,0.0,0.0,0.6,0.0,0.0991229820356307,True,False,False,
dummy_run_001,147,1700000002.45,2.45,True,test_vehicle,16.596983779581553,0.21911001343383696,0.0,10.307873947663062,0.1939770528117032,0.0,10.30969894894746,0.018816116783477443,0.0,0.0,0.6,0.0,0.09896206553128499,True,False,False,
dummy_run_001,148,1700000002.4666667,2.466666666666667,True,test_vehicle,16.769154560878626,0.2223595982524752,0.0,10.330246877824404,0.19497508911829395,0.0,10.332086712865777,0.018871953791630664,0.0,0.0,0.6,0.0,0.09878767934302413,True,False,False,
dummy_run_001,149,1700000002.4833333,2.4833333333333334,True,test_vehicle,16.941693286148983,0.22562553900485804,0.0,10.352323516221464,0.19595644514297086,0.0,10.3541779544735,0.018926480255021437,0.0,0.0,0.6,0.0,0.09859984720647676,True,False,False,
dummy_run_001,150,1700000002.5,2.5,True,test_vehicle,17.11459508272999,0.22890755601887514,0.0,10.374107794860443,0.1969210208410257,0.0,10.375976601160648,0.018979692387111724,0.0,0.0,0.6,0.0,0.0983985946873937,True,False,False,
dummy_run_001,151,1700000002.5166667,2.5166666666666666,True,test_vehicle,17.2878551426241,0.23220536800132893,0.0,10.395603593646397,0.19786871894722757,0.0,10.397486528299602,0.019031586492635956,0.0,0.0,0.6,0.0,0.09818394917816822,True,False,False,
dummy_run_001,152,1700000002.5333333,2.533333333333333,True,test_vehicle,17.46146872164195,0.2355186920837864,0.0,10.416814741070914,0.19879944494744747,0.0,10.418711559934064,0.019082158967857664,0.0,0.0,0.6,0.0,0.09795593989410772,True,False,False,
dummy_run_001,153,1700000002.55,2.55,True,test_vehicle,17.635431138556793,0.23884724386796355,0.0,10.437745014890671,0.19971310705062986,0.0,10.439655469458888,0.019131406300819716,0.0,0.0,0.6,0.0,0.09771459786945717,True,False,False,
dummy_run_001,154,1700000002.5666666,2.5666666666666664,True,test_vehicle,17.80973777427008,0.2421907374706487,0.0,10.458398142797074,0.20060961616110903,0.0,10.460321980290932,0.01917932507158824,0.0,0.0,0.6,0.0,0.09745995595317512,True,False,False,
dummy_run_001,155,1700000002.5833333,2.5833333333333335,True,test_vehicle,17.98438407098803,0.24554888556816978,0.0,10.478777803077005,0.20148888585126495,0.0,10.480714766530998,0.019225911952490068,0.0,0.0,0.6,0.0,0.09719204880446258,True,False,False,
dummy_run_001,156,1700000002.6,2.6,True,test_vehicle,18.159365531409108,0.2489213994404117,0.0,10.498887625264844,0.20235083233451534,0.0,10.50083745361701,0.01927116370834386,0.0,0.0,0.6,0.0,0.09691091288804565,True,False,False,
dummy_run_001,157,1700000002.6166666,2.6166666666666667,True,test_vehicle,18.334677717922208,0.25230798901438906,0.0,10.518731190785921,0.20319537443864097,0.0,10.520693618968565,0.019315077196684762,0.0,0.0,0.6,0.0,0.09661658646921224,True,False,False,
dummy_run_001,158,1700000002.6333334,2.6333333333333333,True,test_vehicle,18.510316251815397,0.2557083629073797,0.0,10.5383120335914,0.20402243357943914,0.0,10.540286792622911,0.019357649367982614,0.0,0.0,0.6,0.0,0.09630910960860388,True,False,False,
dummy_run_001,159,1700000002.65,2.65,True,test_vehicle,18.686276812495144,0.25912222846962474,0.0,10.557633640784811,0.20483193373470224,0.0,10.559620457862518,0.019398877265853744,0.0,0.0,0.6,0.0,0.09598852415676298,True,False,False,
dummy_run_001,160,1700000002.6666667,2.6666666666666665,True,test_vehicle,18.862555136715816,0.26254929182660003,0.0,10.576699453240323,0.20562380141851808,0.0,10.578698051834355,0.019438758027266256,0.0,0.0,0.6,0.0,0.09565487374843668,True,False,False,
dummy_run_001,161,1700000002.6833334,2.683333333333333,True,test_vehicle,19.039147017819364,0.2659892579208648,0.0,10.59551286621282,0.20639796565588708,0.0,10.597522966160927,0.019477288882738857,0.0,0.0,0.6,0.0,0.09530820379663767,True,False,False,
dummy_run_001,162,1700000002.7,2.7,True,test_vehicle,19.21604830498503,0.26944183055349236,0.0,10.61407722993992,0.20715435795765352,0.0,10.61609854754325,0.019514467156533183,0.0,0.0,0.6,0.0,0.09494856148646305,True,False,False,
dummy_run_001,163,1700000002.7166667,2.716666666666667,True,test_vehicle,19.393254902488966,0.2729067124250881,0.0,10.632395850236065,0.20789291229574672,0.0,10.634428098355826,0.0195502902668396,0.0,0.0,0.6,0.0,0.09457599576867208,True,False,False,
dummy_run_001,164,1700000002.7333333,2.7333333333333334,True,test_vehicle,19.570762768973612,0.27638360517640026,0.0,10.650471989078765,0.2086135650787286,0.0,10.652514877233743,0.019584755725956512,0.0,0.0,0.6,0.0,0.09419055735302334,True,False,False,
dummy_run_001,165,1700000002.75,2.75,True,test_vehicle,19.74856791672673,0.27987220942852764,0.0,10.66830886518707,0.20931625512764357,0.0,10.670362099651992,0.019617861140463114,0.0,0.0,0.6,0.0,0.09379229870137282,True,False,False,
dummy_run_001,166,1700000002.7666667,2.7666666666666666,True,test_vehicle,19.92666641096994,0.28337222482273045,0.0,10.685909654592448,0.210000923652167,0.0,10.687972938497124,0.019649604211385587,0.0,0.0,0.6,0.0,0.09338127402053324,True,False,False,
dummy_run_001,167,1700000002.7833333,2.783333333333333,True,test_vehicle,20.10505436915664,0.28688335005984794,0.0,10.703277491202087,0.2106675142270489,0.0,10.705350524631308,0.019679982734356765,0.0,0.0,0.6,0.0,0.09295753925489605,True,False,False,
dummy_run_001,168,1700000002.8,2.8,True,test_vehicle,20.28372796027922,0.29040528293932877,0.0,10.720415467354801,0.21131597276884942,0.0,10.722497947448966,0.019708994599769204,0.0,0.0,0.6,0.0,0.09252115207881684,True,False,False,
dummy_run_001,169,1700000002.8166666,2.8166666666666664,True,test_vehicle,20.462683404185377,0.29393772039787813,0.0,10.737326634369563,0.21194624751296073,0.0,10.739418255425981,0.019736637792921688,0.0,0.0,0.6,0.0,0.09207217188876529,True,False,False,
dummy_run_001,170,1700000002.8333333,2.8333333333333335,True,test_vehicle,20.64191697090349,0.2974803585477267,0.0,10.754014003086818,0.21255828899091395,0.0,10.756114456661667,0.019762910394159134,0.0,0.0,0.6,0.0,0.09161065979524079,True,False,False,
dummy_run_001,171,1700000002.85,2.85,True,test_vehicle,20.821424979976868,0.3010328927145261,0.0,10.770480544402652,0.21315205000796575,0.0,10.77258951941355,0.01978781057900591,0.0,0.0,0.6,0.0,0.09113667861445468,True,False,False,
dummy_run_001,172,1700000002.8666666,2.8666666666666667,True,test_vehicle,21.0012037998068,0.30459501747487544,0.0,10.786729189795917,0.2137274856209615,0.0,10.78884637262507,0.019811336618292506,0.0,0.0,0.6,0.0,0.09065029285978038,True,False,False,
dummy_run_001,173,1700000002.8833334,2.8833333333333333,True,test_vehicle,21.18124984700427,0.3081664266934833,0.0,10.802762831848375,0.2142845531164714,0.0,10.804887906446279,0.019833486878275658,0.0,0.0,0.6,0.0,0.09015156873297246,True,False,False,
dummy_run_001,174,1700000002.9,2.9,True,test_vehicle,21.36155958575024,0.3117468135599699,0.0,10.818584324758021,0.21482321198919585,0.0,10.820716972747661,0.01985425982075177,0.0,0.0,0.6,0.0,0.08964057411515601,True,False,False,
dummy_run_001,175,1700000002.9166667,2.9166666666666665,True,test_vehicle,21.54212952716433,0.3153358706253139,0.0,10.8341964848456,0.215343423920636,0.0,10.836336385627138,0.019873654003163738,0.0,0.0,0.6,0.0,0.08911737855758733,True,False,False,
dummy_run_001,176,1700000002.9333334,2.933333333333333,True,test_vehicle,21.722956228681905,0.31893328983794766,0.0,10.849602091054471,0.21584515275802701,0.0,10.851748921910362,0.019891668078701127,0.0,0.0,0.6,0.0,0.08858205327218738,True,False,False,
dummy_run_001,177,1700000002.95,2.95,True,test_vehicle,21.904036293439304,0.3225387625795065,0.0,10.864803885443852,0.2163283644935289,0.0,10.866957321644373,0.01990830079639372,0.0,0.0,0.6,0.0,0.08803467112184907,True,False,False,
dummy_run_001,178,1700000002.9666667,2.966666666666667,True,test_vehicle,22.08536636966723,0.32615197970023435,0.0,10.879804573675576,0.21679302724367258,0.0,10.881964288584735,0.019923551001198355,0.0,0.0,0.6,0.0,0.08747530661052004,True,False,False,
dummy_run_001,179,1700000002.9833333,2.9833333333333334,True,test_vehicle,22.26694315009214,0.32977263155405195,0.0,10.894606825494444,0.21723911122905687,0.0,10.896772490676206,0.01993741763407916,0.0,0.0,0.6,0.0,0.08690403587306185,True,False,False,
dummy_run_001,180,1700000003.0,3.0,True,test_vehicle,22.44876337134551,0.3334004080332902,0.0,10.90921327520221,0.2176665887542932,0.0,10.91138456052705,0.01994989973208109,0.0,0.0,0.6,0.0,0.0863209366648874,True,False,False,
dummy_run_001,181,1700000003.0166667,3.0166666666666666,True,test_vehicle,22.630823813380932,0.33703499860309344,0.0,10.923626522125348,0.21807543418819442,0.0,10.925803095877058,0.019960996428396802,0.0,0.0,0.6,0.0,0.08572608835137754,True,False,False,
dummy_run_001,182,1700000003.0333333,3.033333333333333,True,test_vehicle,22.813121298898874,0.34067609233549684,0.0,10.937849131076634,0.21846562394420418,0.0,10.940030660059378,0.019970706952426847,0.0,0.0,0.6,0.0,0.08511957189707883,True,False,False,
dummy_run_001,183,1700000003.05,3.05,True,test_vehicle,22.995652692779053,0.34432337794318124,0.0,10.951883632810663,0.218837136461063,0.0,10.954069782456225,0.019979030629833177,0.0,0.0,0.6,0.0,0.08450146985468342,True,False,False,
dummy_run_001,184,1700000003.0666666,3.0666666666666664,True,test_vehicle,23.178414901520277,0.3479765438129097,0.0,10.965732524473344,0.2191899521837085,0.0,10.967922958948556,0.019985966882585988,0.0,0.0,0.6,0.0,0.08387186635379279,True,False,False,
dummy_run_001,185,1700000003.0833333,3.0833333333333335,True,test_vehicle,23.361404872687704,0.3516352780386498,0.0,10.979398270045493,0.2195240535444051,0.0,10.98159265235979,0.01999151522900384,0.0,0.0,0.6,0.0,0.08323084708946704,True,False,False,
dummy_run_001,186,1700000003.1,3.1,True,test_vehicle,23.54461959436738,0.3552992684543848,0.0,10.992883300780559,0.21983942494410083,0.0,10.995081292893648,0.01999567528378714,0.0,0.0,0.6,0.0,0.08257849931056081,True,False,False,
dummy_run_001,187,1700000003.1166666,3.1166666666666667,True,test_vehicle,23.728056094627988,0.3589682026666183,0.0,11.006190015636607,0.2201360527340071,0.0,11.008391278566194,0.01999844675804486,0.0,0.0,0.6,0.0,0.08191491180784802,True,False,False,
dummy_run_001,188,1700000003.1333334,3.1333333333333333,True,test_vehicle,23.9117114409897,0.3626417680865749,0.0,11.01932078170259,0.22041392519739825,0.0,11.02152497563216,0.01999982945931462,0.0,0.0,0.6,0.0,0.08124017490193648,True,False,False,
dummy_run_001,189,1700000003.15,3.15,True,test_vehicle,24.095582739900017,0.36631965196210203,0.0,11.032277934619017,0.2206730325316275,0.0,11.034484719005611,0.019999823291576062,0.0,0.0,0.6,0.0,0.08055438043097451,True,False,False,
dummy_run_001,190,1700000003.1666667,3.1666666666666665,True,test_vehicle,24.27966713621657,0.37000154140927466,0.0,11.045063778993095,0.22091336683035645,0.0,11.047272812675061,0.019998428255257498,0.0,0.0,0.6,0.0,0.07985762173815075,True,False,False,
dummy_run_001,191,1700000003.1833334,3.183333333333333,True,test_vehicle,24.46396181269671,0.37368712344370786,0.0,11.05768058880838,0.22113492206599322,0.0,11.059891530113067,0.019995644447235884,0.0,0.0,0.6,0.0,0.07914999365898938,True,False,False,
dummy_run_001,192,1700000003.2,3.2,True,test_vehicle,24.64846398949386,0.37737608501158015,0.0,11.070130607829038,0.22133769407233805,0.0,11.072343114680404,0.0199914720608301,0.0,0.0,0.6,0.0,0.07843159250844202,True,False,False,
dummy_run_001,193,1700000003.2166667,3.216666666666667,True,test_vehicle,24.833170923660507,0.3810681130203707,0.0,11.08241604999881,0.22152168052743157,0.0,11.084629780024903,0.01998591138578754,0.0,0.0,0.6,0.0,0.07770251606777842,True,False,False,
dummy_run_001,194,1700000003.2333333,3.2333333333333334,True,test_vehicle,25.018079908657754,0.38476289436931405,0.0,11.094539099834698,0.2216868809366024,0.0,11.096753710474983,0.019978962808263945,0.0,0.0,0.6,0.0,0.07696286357127742,True,False,False,
dummy_run_001,195,1700000003.25,3.25,True,test_vehicle,25.203188273871344,0.3884601159795759,0.0,11.106501912815485,0.2218332966157123,0.0,11.108717061427994,0.019970626810796633,0.0,0.0,0.6,0.0,0.07621273569272025,True,False,False,
dummy_run_001,196,1700000003.2666667,3.2666666666666666,True,test_vehicle,25.388493384134097,0.3921594648241525,0.0,11.118306615765125,0.22196093067459358,0.0,11.120521959733386,0.019960903972270964,0.0,0.0,0.6,0.0,0.07545223453168781,True,False,False,
dummy_run_001,197,1700000003.2833333,3.283333333333333,True,test_vehicle,25.573992639254616,0.3958606279574971,0.0,11.129955307231121,0.2220697880006777,0.0,11.132170504070842,0.019949794967880154,0.0,0.0,0.6,0.0,0.07468146359966413,True,False,False,
dummy_run_001,198,1700000003.3,3.3,True,test_vehicle,25.759683473552247,0.39956329254487727,0.0,11.14145005785789,0.2221598752428097,0.0,11.143664765323367,0.01993730056907838,0.0,0.0,0.6,0.0,0.07390052780594712,True,False,False,
dummy_run_001,199,1700000003.3166666,3.3166666666666664,True,test_vehicle,25.945563355398168,0.40326714589146473,0.0,11.152792910755238,0.22223120079524716,0.0,11.155006786945457,0.019923421643527194,0.0,0.0,0.6,0.0,0.07310953344336978,True,False,False,
dummy_run_001,200,1700000003.3333333,3.3333333333333335,True,test_vehicle,26.131629786762534,0.40697187547116204,0.0,11.16398588186198,0.22228377478183983,0.0,11.16619858532638,0.0199081591550353,0.0,0.0,0.6,0.0,0.07230858817383246,True,False,False,
dummy_run_001,201,1700000003.35,3.35,True,test_vehicle,26.317880302767612,0.4106771689551685,0.0,11.175030960304786,0.22231760904038642,0.0,11.177242150148665,0.019891514163491598,0.0,0.0,0.6,0.0,0.0714978010136493,True,False,False,
dummy_run_001,202,1700000003.3666666,3.3666666666666667,True,test_vehicle,26.504312471246816,0.4143827142402879,0.0,11.185930108752299,0.2223327171071658,0.0,11.188139444741806,0.019873487824791588,0.0,0.0,0.6,0.0,0.07067728231870972,True,False,False,
dummy_run_001,203,1700000003.3833334,3.3833333333333333,True,test_vehicle,26.69092389230956,0.4180881994769819,0.0,11.196685263764602,0.22232911420164017,0.0,11.19889240643132,0.019854081390757103,0.0,0.0,0.6,0.0,0.06984714376945828,True,False,False,
dummy_run_001,204,1700000003.4,3.4,True,test_vehicle,26.877712197911862,0.42179331309717066,0.0,11.207298336138098,0.2223068172113262,0.0,11.209502946883166,0.019833296209049372,0.0,0.0,0.6,0.0,0.06900749835569364,True,False,False,
dummy_run_001,205,1700000003.4166667,3.4166666666666665,True,test_vehicle,27.064675051432626,0.4254977438417845,0.0,11.21777121124583,0.22226584467683128,0.0,11.219972952443586,0.01981113372307544,0.0,0.0,0.6,0.0,0.06815846036118976,True,False,False,
dummy_run_001,206,1700000003.4333334,3.433333333333333,True,test_vehicle,27.251810147255515,0.42920118078806874,0.0,11.228105749373379,0.2222062167770529,0.0,11.230304284474482,0.01978759547188793,0.0,0.0,0.6,0.0,0.0673001453481407,True,False,False,
dummy_run_001,207,1700000003.45,3.4499999999999997,True,test_vehicle,27.439115210356352,0.43290331337664434,0.0,11.23830378605029,0.2221279553145368,0.0,11.24049877968431,0.019762683090078153,0.0,0.0,0.6,0.0,0.06643267014143138,True,False,False,
dummy_run_001,208,1700000003.4666667,3.466666666666667,True,test_vehicle,27.62658799589597,0.43660383143832754,0.0,11.248367132377183,0.22203108370099195,0.0,11.25055825045463,0.019736398307662616,0.0,0.0,0.6,0.0,0.06555615281273679,True,False,False,
dummy_run_001,209,1700000003.4833333,3.4833333333333334,True,test_vehicle,27.814226288818446,0.44030242522071017,0.0,11.258297575348555,0.22191562694295902,0.0,11.26048448516229,0.019708742949962863,0.0,0.0,0.6,0.0,0.06467071266445136,True,False,False,
dummy_run_001,210,1700000003.5,3.5,True,test_vehicle,28.002027903454636,0.443998785414504,0.0,11.268096878171336,0.22178161162762974,0.0,11.270279248497385,0.01967971893747874,0.0,0.0,0.6,0.0,0.0637764702134504,True,False,False,
dummy_run_001,211,1700000003.5166667,3.5166666666666666,True,test_vehicle,28.189990683130958,0.44769260317965087,0.0,11.27776678057927,0.22162906590881395,0.0,11.279944281776968,0.019649328285754997,0.0,0.0,0.6,0.0,0.06287354717468699,True,False,False,
dummy_run_001,212,1700000003.5333333,3.533333333333333,True,test_vehicle,28.378112499783345,0.45138357017120173,0.0,11.287308999143162,0.22145801949305197,0.0,11.289481303254636,0.01961757310524135,0.0,0.0,0.6,0.0,0.06196206644462519,True,False,False,
dummy_run_001,213,1700000003.55,3.55,True,test_vehicle,28.566391253576295,0.4550713785649662,0.0,11.296725227577056,0.22126850362586895,0.0,11.298892008425991,0.019584455601145905,0.0,0.0,0.6,0.0,0.06104215208451276,True,False,False,
dummy_run_001,214,1700000003.5666666,3.5666666666666664,True,test_vehicle,28.754824872526967,0.4587557210829357,0.0,11.306017137040387,0.22106055107816905,0.0,11.308178070330069,0.019549978073282025,0.0,0.0,0.6,0.0,0.06011392930349521,True,False,False,
dummy_run_001,215,1700000003.5833333,3.5833333333333335,True,test_vehicle,28.943411312134238,0.4624362910184818,0.0,11.315186376436177,0.2208341961327663,0.0,11.317341139846782,0.01951414291590863,0.0,0.0,0.6,0.0,0.05917752444157346,True,False,False,
dummy_run_001,216,1700000003.6,3.6,True,test_vehicle,29.13214855501266,0.4661127822613326,0.0,11.324234572705299,0.22058947457104933,0.0,11.326382845990397,0.019476952617563905,0.0,0.0,0.6,0.0,0.05823306495240819,True,False,False,
dummy_run_001,217,1700000003.6166666,3.6166666666666667,True,test_vehicle,29.321034610531274,0.4697848893223289,0.0,11.333163331116902,0.22032642365977767,0.0,11.33530479619915,0.019438409760892516,0.0,0.0,0.6,0.0,0.057280679385971714,True,False,False,
dummy_run_001,218,1700000003.6333334,3.6333333333333333,True,test_vehicle,29.51006751445719,0.4734523073579624,0.0,11.341974235555007,0.22004508213800703,0.0,11.344108576621025,0.019398517022466238,0.0,0.0,0.6,0.0,0.056320497371051395,True,False,False,
dummy_run_001,219,1700000003.65,3.65,True,test_vehicle,29.69924532860388,0.4771147321946981,0.0,11.350668848801353,0.21974549020414025,0.0,11.352795752395728,0.0193572771725981,0.0,0.0,0.6,0.0,0.0553526495976057,True,False,False,
dummy_run_001,220,1700000003.6666667,3.6666666666666665,True,test_vehicle,29.888566140484123,0.4807718603530831,0.0,11.359248712814525,0.21942768950310185,0.0,11.361367867932941,0.019314693075149995,0.0,0.0,0.6,0.0,0.054377267798976295,True,False,False,
dummy_run_001,221,1700000003.6833334,3.683333333333333,True,test_vehicle,30.078028062967547,0.4844233890716437,0.0,11.367715349005431,0.21909172311363406,0.0,11.369826447186895,0.019270767687333795,0.0,0.0,0.6,0.0,0.05339448473395769,True,False,False,
dummy_run_001,222,1700000003.7,3.6999999999999997,True,test_vehicle,30.2676292339427,0.4880690163305722,0.0,11.376070258509156,0.2187376355357103,0.0,11.37817299392729,0.019225504059506,0.0,0.0,0.6,0.0,0.052404434168727615,True,False,False,
dummy_run_001,223,1700000003.7166667,3.716666666666667,True,test_vehicle,30.457367815983588,0.4917084408752066,0.0,11.38431492245325,0.21836547267806536,0.0,11.38640899200664,0.019178905334955906,0.0,0.0,0.6,0.0,0.05140725085864004,True,False,False,
dummy_run_001,224,1700000003.7333333,3.7333333333333334,True,test_vehicle,30.64724199602063,0.4953413622393039,0.0,11.392450802222514,0.21797528184583875,0.0,11.394535905624071,0.01913097474968733,0.0,0.0,0.6,0.0,0.05040307052988381,True,False,False,
dummy_run_001,225,1700000003.75,3.75,True,test_vehicle,30.837249985015966,0.4989674807681094,0.0,11.400479339720297,0.21756711172832885,0.0,11.402555179585633,0.019081715632193876,0.0,0.0,0.6,0.0,0.04939202986100892,True,False,False,
dummy_run_001,226,1700000003.7666667,3.7666666666666666,True,test_vehicle,31.02739001764307,0.5025864976412237,0.0,11.408401957626378,0.21714101238685563,0.0,11.410468239561151,0.01903113140322779,0.0,0.0,0.6,0.0,0.04837426646432333,True,False,False,
dummy_run_001,227,1700000003.7833333,3.783333333333333,True,test_vehicle,31.217660351970597,0.5061981148952691,0.0,11.416220059651458,0.21669703524272949,0.0,11.418276492337682,0.01897922557556243,0.0,0.0,0.6,0.0,0.04734991886716247,True,False,False,
dummy_run_001,228,1700000003.8,3.8,True,test_vehicle,31.408059269150403,0.5098020354463578,0.0,11.423935030788334,0.21623523306532402,0.0,11.42598132606962,0.01892600175374829,0.0,0.0,0.6,0.0,0.04631912649303456,True,False,False,
dummy_run_001,229,1700000003.8166666,3.8166666666666664,True,test_vehicle,31.59858507310973,0.513397963112362,0.0,11.431548237559765,0.21575565996025,0.0,11.433584110525477,0.018871463633862728,0.0,0.0,0.6,0.0,0.04528202964264358,True,False,False,
dummy_run_001,230,1700000003.8333333,3.8333333333333335,True,test_vehicle,31.78923609024745,0.516985602634989,0.0,11.439061028263096,0.21525837135762815,0.0,11.4410861973314,0.018815615003253256,0.0,0.0,0.6,0.0,0.044238769474793035,True,False,False,
dummy_run_001,231,1700000003.85,3.85,True,test_vehicle,31.98001066913431,0.5205646597016633,0.0,11.446474733211677,0.21474342400045948,0.0,11.448488920211469,0.018758459740274562,0.0,0.0,0.6,0.0,0.04318948798717294,True,False,False,
dummy_run_001,232,1700000003.8666666,3.8666666666666667,True,test_vehicle,32.17090718021719,0.5241348409672149,0.0,11.453790664973134,0.21421087593308932,0.0,11.455793595224808,0.018700001814019155,0.0,0.0,0.6,0.0,0.042134327997032504,True,False,False,
dummy_run_001,233,1700000003.8833334,3.8833333333333333,True,test_vehicle,32.361924015527265,0.5276958540753776,0.0,11.461010118604484,0.21366078648976414,0.0,11.463001520999542,0.018640245284041762,0.0,0.0,0.6,0.0,0.04107343312174138,True,False,False,
dummy_run_001,234,1700000003.9,3.9,True,test_vehicle,32.553059588392,0.5312474076800988,0.0,11.468134371884215,0.21309321628327826,0.0,11.470113978963685,0.018579194300077387,0.0,0.0,0.6,0.0,0.040006947759241955,True,False,False,
dummy_run_001,235,1700000003.9166667,3.9166666666666665,True,test_vehicle,32.74431233315102,0.5347892114666606,0.0,11.47516468554129,0.21250822719370865,0.0,11.47713223357294,0.01851685310175316,0.0,0.0,0.6,0.0,0.03893501706839546,True,False,False,
dummy_run_001,236,1700000003.9333334,3.933333333333333,True,test_vehicle,32.93568070487571,0.5383209761726145,0.0,11.482102303481176,0.21190588235723523,0.0,11.484057532535498,0.018453226018293915,0.0,0.0,0.6,0.0,0.03785778694922428,True,False,False,
dummy_run_001,237,1700000003.95,3.9499999999999997,True,test_vehicle,33.12716317909252,0.5418424136085319,0.0,11.488948453008902,0.21128624615504532,0.0,11.490891107033864,0.018388317468221546,0.0,0.0,0.6,0.0,0.03677540402305382,True,False,False,
dummy_run_001,238,1700000003.9666667,3.966666666666667,True,test_vehicle,33.318758251510005,0.5453532366785706,0.0,11.4957043450492,0.21064938420231852,0.0,11.497634171943718,0.018322131959048155,0.0,0.0,0.6,0.0,0.03568801561255578,True,False,False,
dummy_run_001,239,1700000003.9833333,3.9833333333333334,True,test_vehicle,33.5104644377494,0.5488531594008588,0.0,11.502371174363779,0.2099953633372929,0.0,11.504287926049917,0.018254674086963074,0.0,0.0,0.6,0.0,0.03459576972169616,True,False,False,
dummy_run_001,240,1700000004.0,4.0,True,test_vehicle,33.70228027307883,0.5523418969276989,0.0,11.508950119765718,0.20932425161040674,0.0,11.510853552259606,0.018185948536513636,0.0,0.0,0.2,0.0,0.03349881501559051,True,False,False,
dummy_run_001,241,1700000004.0166667,4.016666666666667,True,test_vehicle,33.89420431215101,0.5558191655655909,0.0,11.515442344331104,0.2086361182735169,0.0,11.517332217812513,0.01811596008027989,0.0,0.0,0.2,0.0,0.032397300800269195,True,False,False,
dummy_run_001,242,1700000004.0333333,4.033333333333333,True,test_vehicle,34.08623512874448,0.5592846827950774,0.0,11.521848995607861,0.20793103376919048,0.0,11.523725074488466,0.018044713578543172,0.0,0.0,0.2,0.0,0.03129137700235539,True,False,False,
dummy_run_001,243,1700000004.05,4.05,True,test_vehicle,34.278371315508174,0.5627381672904118,0.0,11.52817120582186,0.20720906972006747,0.0,11.530033258812155,0.017972213978948583,0.0,0.0,0.2,0.0,0.030181194148658698,True,False,False,
